{"version": 0.6, "generator": "Overpass API 0.7.57.1 74a55df1", "osm3s": {"timestamp_osm_base": "2021-12-11T18:52:15Z", "copyright": "The data included in this document is from www.openstreetmap.org. The data is made available under ODbL."}, "elements": [{"type": "node", "id": 941930277, "lat": 64.5481708, "lon": 40.559343, "tags": {"amenity": "restaurant", "contact:instagram": "https://www.instagram.com/_mimino29_/", "contact:phone": "+7 8182 446613", "contact:vk": "https://vk.com/mimino29", "cuisine": "georgian", "name": "\u041c\u0438\u043c\u0438\u043d\u043e", "opening_hours": "Mo-Fr 08:00-24:00; Sa, Su 00:00-02:00,08:00-24:00", "wheelchair": "no"}}, {"type": "node", "id": 977277059, "lat": 64.5473166, "lon": 40.5141178, "tags": {"amenity": "restaurant", "name": "\u0411\u043e\u0431\u0440\u043e\u0444\u0444", "opening_hours": "Mo-Su 00:00-02:00,11:30-24:00", "operator": "\u041e\u041e\u041e \"\u041a\u0430\u0444\u0435 \"\u041e\u043d\u0435\u0433\u0430\"", "wheelchair": "no"}}, {"type": "node", "id": 1132322509, "lat": 64.5272466, "lon": 40.6051536, "tags": {"amenity": "restaurant", "capacity": "300", "contact:facebook": "https://www.facebook.com/Flyrestoran/", "contact:instagram": "https://www.instagram.com/restoranfly/", "contact:phone": "+7 8182 445448;+7 906 2822504", "contact:vk": "https://vk.com/restoran_fly", "microbrewery": "no", "name": "FLY", "opening_hours": "Mo 00:00-03:00,13:00-21:00; Tu,We 13:00-21:00; Th 13:00-24:00; Fr 00:00-03:00,13:00-24:00; Sa,Su 00:00-06:00,13:00-24:00", "outdoor_seating": "no", "smoking": "no", "wheelchair": "no"}}, {"type": "node", "id": 1141321359, "lat": 64.5413591, "lon": 40.5279397, "tags": {"amenity": "restaurant", "contact:phone": "+7 8182 655051", "name": "\u041a\u0430\u0431\u0438\u043d\u0435\u0442", "opening_hours": "Sa, Su 00:00-01:00, 12:00-24:00; Mo-Fr 12:00-24:00", "wheelchair": "no"}}, {"type": "node", "id": 1167666362, "lat": 64.5373694, "lon": 40.5766619}, {"type": "node", "id": 1167666595, "lat": 64.537056, "lon": 40.5769883}, {"type": "node", "id": 1167666803, "lat": 64.537105, "lon": 40.5765166}, {"type": "node", "id": 1167667622, "lat": 64.5373237, "lon": 40.577141}, {"type": "node", "id": 1198786109, "lat": 64.53607, "lon": 40.5277962, "tags": {"amenity": "restaurant", "name": "Temple Bar", "name:ru": "\u0422\u0435\u043c\u043f\u043b \u0411\u0430\u0440", "opening_hours": "Mo-Th 12:00-23:00; Sa, Su 00:00-01:00, 12:00-24:00; Fr 12:00-24:00", "wheelchair": "no"}}, {"type": "node", "id": 1215751961, "lat": 64.534778, "lon": 40.5238934, "tags": {"amenity": "restaurant", "contact:facebook": "https://www.facebook.com/pomorskiy29/", "contact:phone": "+7 8182 201858", "internet_access": "wlan", "name": "\u041f\u043e\u043c\u043e\u0440\u0441\u043a\u0438\u0439", "opening_hours": "Mo-Su 12:00-24:00", "operator": "\u041e\u041e\u041e \"\u041f\u043e\u043c\u043e\u0440\u0441\u043a\u043e\u0435 \u0433\u043e\u0441\u0442\u0435\u043f\u0440\u0438\u0438\u043c\u0441\u0442\u0432\u043e\"; \u0418\u041f \u0413\u0435\u0440\u0430\u0441\u0438\u043c\u043e\u0432 \u0410.\u0412.", "wheelchair": "no"}}, {"type": "node", "id": 1229668159, "lat": 64.5363837, "lon": 40.5243142, "tags": {"amenity": "restaurant", "check_date:opening_hours": "2021-07-16", "name": "El Fuego", "opening_hours": "Mo-Su 00:00-02:00,12:00-24:00", "outdoor_seating": "yes", "phone": "+7 8182 650595", "smoking": "no", "website": "www.el-fuego.ru", "wheelchair": "no"}}, {"type": "node", "id": 1468422858, "lat": 64.5332787, "lon": 40.5350885, "tags": {"amenity": "restaurant", "cuisine": "regional", "description": "\u0431\u0430\u043d\u043a\u0435\u0442\u043d\u044b\u0439 \u0440\u0435\u0441\u0442\u043e\u0440\u0430\u043d", "email": "restorantreskoed@yandex.ru", "name": "\u0422\u0440\u0435\u0441\u043a\u043e\u0435\u0434", "opening_hours": "Mo-Su 12:00-24:00 \"call us\"", "phone": "+7 911 5701919", "website": "www.treskoed.ru", "wheelchair": "no"}}, {"type": "node", "id": 1599275703, "lat": 64.5443722, "lon": 40.5154219, "tags": {"amenity": "restaurant", "email": "yalta@29.ru", "internet_access": "wlan", "level": "-1", "name": "\u042f\u043b\u0442\u0430", "opening_hours": "Su-Th 12:00-03:00; Fr-Sa 13:00-06:00", "phone": "+7 8182 404355", "website": "http://yalta29.ru/"}}, {"type": "node", "id": 1893460228, "lat": 64.5357627, "lon": 40.5669655, "tags": {"amenity": "restaurant", "internet_access": "wlan", "name": "\u041b\u0435\u0442\u043d\u0438\u0439 \u0441\u0430\u0434", "opening_hours": "Mo-Fr 00:00-07:00,12:00-24:00; Sa,Su 00:00-08:00,12:00-24:00", "operator": "\u041e\u041e\u041e \"\u041b\u0435\u0442\u043d\u0438\u0439 \u0441\u0430\u0434\"", "phone": "+7 8182 400707"}}, {"type": "node", "id": 1922215493, "lat": 64.5593879, "lon": 40.5311689, "tags": {"amenity": "restaurant", "contact:facebook": "https://www.facebook.com/%D0%A1%D1%82%D0%B0%D1%80%D1%8B%D0%B9-%D0%A2%D0%B8%D1%84%D0%BB%D0%B8%D1%81%D1%8A-1426063627694119", "contact:instagram": "https://www.instagram.com/s_tiflis/", "contact:phone": "+7 8182 447711", "contact:vk": "http://vk.com/s_tiflis", "cuisine": "georgian", "name": "\u0421\u0442\u0430\u0440\u044b\u0439 \u0422\u0438\u0444\u043b\u0438\u0441\u044a", "opening_hours": "Mo-Su 11:00-24:00; Fr,Sa 00:00-02:00,11:00-24:00"}}, {"type": "node", "id": 2001367460, "lat": 64.5337357, "lon": 40.5246161, "tags": {"amenity": "restaurant", "contact:phone": "+7 8182 485888", "name": "\u0417\u0438\u043c\u043d\u0438\u0439 \u0441\u0430\u0434", "opening_hours": "Mo-Fr 00:00-06:00, 12:00-24:00; Sa-Su 00:00-08:00, 12:00-24:00", "wheelchair": "no"}}, {"type": "node", "id": 2025342804, "lat": 64.5389386, "lon": 40.5246669, "tags": {"amenity": "restaurant", "internet_access": "wlan", "internet_access:fee": "no", "name": "\u0411\u043e\u0447\u043a\u0430", "opening_hours": "Mo-Fr 12:00-24:00; Sa,Su 00:00-04:00,12:00-24:00", "operator": "\u041e\u041e\u041e \"\u0425\u043e\u0440\u043e\u0448\u0438\u0439 \u0432\u043a\u0443\u0441\"", "payment:cash": "yes", "payment:mastercard": "yes", "payment:visa": "yes", "wheelchair": "no"}}, {"type": "node", "id": 2116627360, "lat": 64.5409966, "lon": 40.5102892, "tags": {"amenity": "restaurant", "name": "Barolo", "wheelchair": "no"}}, {"type": "node", "id": 2126272036, "lat": 64.5356348, "lon": 40.5230575, "tags": {"amenity": "restaurant", "contact:facebook": "https://www.facebook.com/%D0%A0%D0%B5%D1%81%D1%82%D0%BE%D1%80%D0%B0%D0%BD-Le-Petit-149931352308002", "contact:phone": "+7 8182 211304", "level": "1", "name": "Le Petit", "opening_hours": "Mo 07:00-24:00; Tu-Fr 00:00-01:00,07:00-24:00; Sa 00:00-01:00,08:00-24:00; Su 08:00-24:00", "operator": "\u041e\u041e\u041e \"\u041f\u043e\u043c\u043e\u0440\u0441\u043a\u043e\u0435 \u0433\u043e\u0441\u0442\u0435\u043f\u0440\u0438\u0438\u043c\u0441\u0442\u0432\u043e\";\u0418\u041f \u041a\u0440\u0443\u043f\u0447\u0430\u043a \u041f.\u0412."}}, {"type": "node", "id": 2347468366, "lat": 64.5422053, "lon": 40.5665543, "tags": {"amenity": "restaurant", "name": "\u0411\u0435\u043b\u043e\u043c\u043e\u0440\u0441\u043a\u0438\u0439", "opening_hours": "Mo-Fr 12:00-24:00; Sa,Su 00:00-02:00,12:00-24:00", "phone": "+7 8182 643060"}}, {"type": "node", "id": 2365247987, "lat": 64.5453223, "lon": 40.5195992, "tags": {"amenity": "restaurant", "name": "TG", "phone": "+7 8182 403070", "wheelchair": "no"}}, {"type": "node", "id": 2382707913, "lat": 64.5556764, "lon": 40.5314853, "tags": {"amenity": "restaurant", "name": "\u041a\u0443\u0445\u043d\u044f"}}, {"type": "node", "id": 2383684824, "lat": 64.5366279, "lon": 40.5832591, "tags": {"amenity": "restaurant", "name": "Granat", "opening_hours": "closed"}}, {"type": "node", "id": 2502827297, "lat": 64.53294, "lon": 40.5836796, "tags": {"amenity": "restaurant", "name": "\u0411\u0430\u043a\u0443", "opening_hours": "Mo-Fr 00:00-02:00,12:00-24:00; Sa-Su 00:00-06:00,12:00-24:00", "phone": "+7 902 2864729", "wheelchair": "no"}}, {"type": "node", "id": 2587862037, "lat": 64.5333587, "lon": 40.5366407, "tags": {"amenity": "restaurant", "internet_access": "wlan", "internet_access:fee": "no", "name": "\u0416\u0430\u0440\u043a\u0438\u0439", "opening_hours": "Su-Th 12:00-00:00; Fr-Sa 12:00-02:00", "operator": "\u041e\u041e\u041e \"\u041e\u0442\u0434\u044b\u0445 +\"", "wheelchair": "no"}}, {"type": "node", "id": 2729889502, "lat": 64.5365632, "lon": 40.5235764, "tags": {"amenity": "restaurant", "name": "Stare Mesto", "opening_hours": "Mo-Fr 11:00-24:00; Sa,Su 00:00-01:00,11:00-24:00", "operator": "\u041e\u041e\u041e \"\u041f\u0440\u0430\u0433\u0430 1\"", "outdoor_seating": "yes", "wheelchair": "no"}}, {"type": "node", "id": 3012003521, "lat": 64.5829677, "lon": 40.5096235, "tags": {"alt_name": "\u0418\u043c\u043f\u0435\u0440\u0438\u044f \u0432 \u0421\u043e\u043b\u043e\u043c\u0431\u0430\u043b\u0435", "amenity": "restaurant", "contact:phone": "+7 8182 233160", "name": "\u0421\u043e\u043b\u043e\u043c\u0431\u0430\u043b\u0430", "opening_hours": "Mo-Su 00:00-06:00,11:00-24:00", "wheelchair": "no"}}, {"type": "node", "id": 3108812618, "lat": 64.5396841, "lon": 40.5196561, "tags": {"amenity": "restaurant", "contact:facebook": "https://www.facebook.com/chaihona29", "contact:instagram": "https://www.instagram.com/chaihona29/", "contact:phone": "+7 8182 481100", "contact:vk": "https://vk.com/chaihona29", "contact:website": "http://www.chaihona29.ru", "level": "1", "name": "\u0427\u0430\u0439\u0445\u043e\u043d\u0430", "opening_hours": "Mo-Th, Su 12:00-21:00; Fr, Sa 12:00-22:00", "operator": "\u041e\u041e\u041e \"\u041f\u043e\u043b\u0438\u0441\u0444\u0435\u0440\u0430\"", "wheelchair": "no"}}, {"type": "node", "id": 3414384500, "lat": 64.5423456, "lon": 40.535995, "tags": {"amenity": "restaurant", "contact:facebook": "https://www.facebook.com/%D0%A0%D0%B5%D1%81%D1%82%D0%BE%D1%80%D0%B0%D0%BD-%D0%A1%D0%BE%D0%BB%D1%8C-%D0%9F%D0%B5%D1%80%D0%B5%D1%86-2363923706955906/", "contact:phone": "+7 902 2860047", "name": "\u0421\u043e\u043b\u044c & \u041f\u0435\u0440\u0435\u0446", "opening_hours": "12:00-24:00"}}, {"type": "node", "id": 3831502122, "lat": 64.5343948, "lon": 40.5171851, "tags": {"amenity": "restaurant", "contact:email": "pk1786@yandex.ru", "contact:facebook": "https://www.facebook.com/rpk1786", "contact:instagram": "https://www.instagram.com/pk_1786/", "contact:phone": "+7 8182 407840", "contact:vk": "https://vk.com/pk_1786", "contact:website": "http://www.pk1786.ru", "name": "\u041f\u043e\u0447\u0442\u043e\u0432\u0430\u044f \u043a\u043e\u043d\u0442\u043e\u0440\u0430 1786 \u0433.", "opening_hours": "Mo-Fr 12:00-24:00; Sa,Su 00:00-02:00,12:00-24:00", "operator": "\u041e\u041e\u041e \"\u0414\u043e\u0431\u0440\u043e \u043f\u0440\u043e\"", "wheelchair": "limited"}}, {"type": "node", "id": 4232096252, "lat": 64.5413628, "lon": 40.5112035, "tags": {"amenity": "restaurant", "name": "\u041f\u0443\u0440-\u041d\u0430\u0432\u043e\u043b\u043e\u043a"}}, {"type": "node", "id": 5328108736, "lat": 64.5373467, "lon": 40.5769038, "tags": {"entrance": "yes"}}, {"type": "node", "id": 5699914082, "lat": 64.5308123, "lon": 40.5267688, "tags": {"amenity": "restaurant", "capacity": "400", "contact:email": "reka.restaurant@gmail.com", "contact:facebook": "https://facebook.com/reka.restaurant", "contact:instagram": "https://www.instagram.com/reka.restaurant/", "contact:phone": "+7 8182 409060;+7 911 5949060", "contact:vk": "https://vk.com/reka.restaurant", "contact:website": "https://www.reka.restaurant/", "cuisine": "international", "name": "Reka", "name:en": "Reka", "name:ru": "\u0420\u0435\u043a\u0430", "opening_hours": "Mo-Su 06:30-23:00"}}, {"type": "node", "id": 6170701990, "lat": 64.5343251, "lon": 40.5314123, "tags": {"amenity": "restaurant", "contact:facebook": "https://www.facebook.com/%D0%A0%D0%B5%D1%81%D1%82%D0%BE%D1%80%D0%B0%D0%BD-%D0%93%D0%B5%D0%BD%D0%B0%D1%86%D0%B2%D0%B0%D0%BB%D0%B5-517092655453964", "contact:phone": "+7 8182 444813", "cuisine": "georgian", "name": "\u0413\u0435\u043d\u0430\u0446\u0432\u0430\u043b\u0435", "opening_hours": "Su-Th 12:00-00:00; Fr-Sa 12:00-02:00", "wheelchair": "no"}}, {"type": "node", "id": 6321215832, "lat": 64.5309334, "lon": 40.5387457, "tags": {"amenity": "restaurant", "contact:email": "ilgusto29@gmail.com", "contact:facebook": "https://www.facebook.com/%D0%98%D1%82%D0%B0%D0%BB%D1%8C%D1%8F%D0%BD%D1%81%D0%BA%D0%B8%D0%B9-%D1%80%D0%B5%D1%81%D1%82%D0%BE%D1%80%D0%B0%D0%BD-IL-GUSTO-261821491399340/", "contact:instagram": "https://www.instagram.com/ilgusto_arh/", "contact:phone": "+7 8182 460714", "contact:vk": "https://vk.com/ilgusto_arh", "cuisine": "italian", "name": "iL Gusto", "opening_hours": "Mo-Fr 11:00-24:00; Su 00:00-02:00, 11:00-23:00; Sa 00:00-02:00, 11:00-24:00"}}, {"type": "node", "id": 7950821510, "lat": 64.535518, "lon": 40.522996, "tags": {"amenity": "restaurant", "name": "Bazar", "opening_hours": "Tu-Su 00:00-01:00, 12:00-24:00; Mo 12:00-24:00", "phone": "+7 8182 211304"}}, {"type": "node", "id": 8730922830, "lat": 64.5343621, "lon": 40.5262542, "tags": {"amenity": "restaurant", "name": "\u0420\u0438\u043d\u043a\u0430\u043d", "opening_hours": "Mo-Su 12:00-24:00"}}, {"type": "node", "id": 8741270544, "lat": 64.5363523, "lon": 40.5103616, "tags": {"amenity": "restaurant", "name": "\u041a\u043e\u0432\u0447\u0435\u0433"}}, {"type": "way", "id": 101147816, "nodes": [1167666362, 5328108736, 1167667622, 1167666595, 1167666803, 1167666362], "tags": {"addr:city": "\u0410\u0440\u0445\u0430\u043d\u0433\u0435\u043b\u044c\u0441\u043a", "addr:housenumber": "5 \u043a1", "addr:street": "\u0421\u0442\u0440\u0435\u043b\u043a\u043e\u0432\u0430\u044f \u0443\u043b\u0438\u0446\u0430", "amenity": "restaurant", "building": "yes", "building:levels": "1"}}]}